,City,Cloudiness,Country,Date,Humidity,Lat,Lng,Max Temp (C),Wind Speed
0,rikitea,9,PF,1561943718,58,-23.12,-134.97,20.95,4.91
1,cherskiy,100,RU,1561943718,91,68.75,161.3,3.85,3.13
2,aktash,,,,,,,,
3,new norfolk,20,AU,1561943504,44,-42.78,147.06,17.22,5.7
4,ribeira grande,98,PT,1561943719,92,38.52,-28.7,20.15,7.33
5,emboscada,90,PY,1561943719,93,-25.13,-57.35,16,5.7
6,hermanus,99,ZA,1561943175,68,-34.42,19.24,15,2.68
7,tromso,40,NO,1561943720,75,69.65,18.96,11,10.3
8,qaanaaq,2,GL,1561943184,49,77.48,-69.36,10.35,1.34
9,atuona,76,PF,1561942921,72,-9.8,-139.03,26.85,4.79
10,bredasdorp,71,ZA,1561943720,87,-34.53,20.04,15,2.6
11,vaitupu,,,,,,,,
12,torbay,90,CA,1561943721,100,47.66,-52.73,11.67,2.6
13,barrow,19,AR,1561943721,75,-38.31,-60.23,4.15,4.26
14,vaitape,59,PF,1561943721,76,-16.52,-151.75,25.35,9.04
15,bayir,0,TR,1561943722,27,37.27,28.22,26.11,6.7
16,mataura,82,NZ,1561943488,79,-46.19,168.86,12.22,0.45
17,hilo,90,US,1561943722,74,19.71,-155.08,27,4.1
18,soe,0,EE,1561943722,59,57.91,26.05,19.44,4.1
19,ponta do sol,3,BR,1561943511,69,-20.63,-46,16.55,2.07
20,punta arenas,75,CL,1561943723,80,-53.16,-70.91,2,8.2
21,thompson,75,CA,1561943723,82,55.74,-97.86,17,7.2
22,khatanga,30,RU,1561943723,59,71.98,102.47,11.15,4.46
23,biryusinsk,16,RU,1561943724,58,55.96,97.82,20.25,4.11
24,touros,75,BR,1561943483,94,-5.2,-35.46,24,2.6
25,ushuaia,75,AR,1561943570,59,-54.81,-68.31,3,7.7
26,puerto palomas,1,US,1561943724,9,31.78,-107.63,36,3.1
27,huarmey,12,PE,1561943725,90,-10.07,-78.15,17.85,6.79
28,saldanha,25,PT,1561943535,81,41.42,-6.55,19.55,2.29
29,upernavik,0,GL,1561943725,81,72.79,-56.15,4.85,2.73
30,dikson,23,RU,1561943505,82,73.51,80.55,3.95,3.96
31,port alfred,0,ZA,1561943486,72,-33.59,26.89,17.78,3.13
32,viedma,6,AR,1561943726,58,-40.81,-62.99,5.05,5.74
33,albany,75,US,1561943726,64,42.65,-73.75,21.67,2.1
34,tiksi,100,RU,1561943726,75,71.64,128.87,6.05,4.27
35,tefe,84,BR,1561943727,74,-3.35,-64.71,26.35,0.38
36,mys shmidta,,,,,,,,
37,bluff,0,AU,1561943727,49,-23.58,149.07,20.45,4.29
38,eskasem,,,,,,,,
39,hasaki,75,JP,1561943728,100,35.73,140.83,23,2.6
40,dicabisagan,100,PH,1561943728,88,17.08,122.42,26.25,1.1
41,kaeo,34,NZ,1561943728,93,-35.1,173.78,16.11,3.13
42,jamestown,100,AU,1561943729,60,-33.21,138.6,9.45,5.94
43,chuy,28,UY,1561943486,83,-33.69,-53.46,10.35,5.41
44,taylorville,1,US,1561943654,73,39.55,-89.29,26.67,1.5
45,lagoa,0,PT,1561943578,60,37.14,-8.45,23,0.5
46,qostanay,0,KZ,1561943639,51,53.17,63.58,17,9
47,barentsburg,,,,,,,,
48,taolanaro,,,,,,,,
49,lebu,75,ET,1561943730,77,8.96,38.73,15,4.1
50,bethel,90,US,1561943563,71,60.79,-161.76,14,6.7
51,ponca city,1,US,1561943731,55,36.73,-97.07,30,6.2
52,kilembe,37,UG,1561943731,89,0.2,30.01,18.45,0.77
53,joniskelis,,,,,,,,
54,vaini,75,IN,1561943731,94,15.34,74.49,22,3.1
55,yarmouth,90,CA,1561943732,93,43.84,-66.12,16.11,6.7
56,chunoyar,4,RU,1561943732,48,57.45,97.32,23.15,1.69
57,ouargaye,0,BF,1561943732,58,11.5,0.06,29.35,3.54
58,yatou,75,CM,1561943733,100,3.63,9.81,25,1
59,san rafael del sur,20,NI,1561943733,70,11.85,-86.44,30,4.1
60,puerto ayora,20,EC,1561943733,69,-0.74,-90.35,24,7.2
61,karratha,72,AU,1561943734,25,-20.74,116.85,19.55,4.85
62,otavi,0,NA,1561943734,65,-19.64,17.34,10.35,4.21
63,vila velha,75,BR,1561943734,78,-3.71,-38.6,26,6.2
64,datong,0,CN,1561943734,36,40.09,113.3,19.05,2.1
65,cartagena,0,ES,1561943500,73,37.63,-1,24.44,1.5
66,tomatlan,1,MX,1561943735,66,19.93,-105.25,29.15,3.55
67,mogadishu,47,SO,1561943735,88,2.04,45.34,24.65,6.33
68,norman wells,75,CA,1561943735,44,65.28,-126.83,14,7.2
69,chumikan,100,RU,1561943736,91,54.72,135.31,8.15,2.52
70,mar del plata,49,AR,1561943736,69,-46.43,-67.52,0.45,7.53
71,aflu,,,,,,,,
72,muros,90,ES,1561943736,100,42.77,-9.06,19.44,3.1
73,naze,100,NG,1561943737,97,5.43,7.07,22.85,1.38
74,illoqqortoormiut,,,,,,,,
75,marsa matruh,0,EG,1561943737,78,31.35,27.25,25,4.6
76,joao pinheiro,16,BR,1561943738,51,-17.74,-46.17,18.15,1.25
77,eydhafushi,82,MV,1561943738,74,5.1,73.07,28.25,4.2
78,avarua,94,CK,1561943738,71,-21.21,-159.78,21.55,10.69
79,lompoc,1,US,1561943739,72,34.64,-120.46,25.56,6.2
80,egvekinot,81,RU,1561943739,68,66.32,-179.17,11.05,5.64
81,tuktoyaktuk,40,CA,1561943739,66,69.44,-133.03,9,3.6
82,nuuk,16,GL,1561943528,75,64.17,-51.74,6,4.1
83,kuloy,33,RU,1561943740,95,61.03,42.49,4.45,2.47
84,kahului,75,US,1561943741,78,20.89,-156.47,26,3.1
85,san marcos de tarrazu,,,,,,,,
86,fukue,75,JP,1561943741,94,35.03,136.69,25.56,2.6
87,novyy urengoy,76,RU,1561943741,51,66.08,76.63,16.25,5.77
88,sentyabrskiy,,,,,,,,
89,palabuhanratu,,,,,,,,
90,constitucion,75,MX,1561943742,43,23.99,-104.67,21.67,7.2
91,port blair,100,IN,1561943622,80,11.67,92.75,28.75,10.62
92,watsa,85,CD,1561943743,96,3.04,29.53,17.25,0.53
93,nyandoma,0,RU,1561943743,78,61.67,40.21,3.75,1.39
94,bengkulu,,,,,,,,
95,umm lajj,0,SA,1561943741,70,25.02,37.27,29.55,3.3
96,cidreira,94,BR,1561943744,84,-30.17,-50.22,15.45,3.88
97,georgetown,40,GY,1561943744,78,6.8,-58.16,28,4.1
98,lloydminster,75,CA,1561943744,67,53.28,-110.01,16,4.1
99,dasoguz,0,TM,1561943660,53,41.84,59.97,24,2.1
100,amderma,,,,,,,,
101,kupang,20,ID,1561943600,69,-10.16,123.6,27,6.2
102,botshabelo,0,ZA,1561943745,40,-29.23,26.73,11,5.1
103,dongkan,89,CN,1561943745,74,34,119.83,27.35,1.1
104,hobart,20,AU,1561943629,44,-42.88,147.33,17.22,5.7
105,cabo san lucas,5,MX,1561943614,51,22.89,-109.91,32.22,2.1
106,alofi,84,NU,1561943746,73,-19.06,-169.92,24.55,9.5
107,ndioum,32,SN,1561943747,45,16.51,-14.65,27.25,6.23
108,belushya guba,,,,,,,,
109,hofn,61,IS,1561943747,86,64.25,-15.21,-1.15,4.48
110,codrington,75,AU,1561943747,88,-28.95,153.24,18,2.6
111,kununurra,51,AU,1561943748,30,-15.77,128.74,27,6.2
112,arraial do cabo,0,BR,1561943518,73,-22.97,-42.02,23.25,3.95
113,sisimiut,98,GL,1561943748,86,66.94,-53.67,2.65,3.49
114,polson,1,US,1561943748,22,47.69,-114.16,27,1.5
115,ahipara,77,NZ,1561943749,82,-35.17,173.16,15.85,3.4
116,ayagoz,0,KZ,1561943749,72,47.96,80.43,9.85,12.71
117,provideniya,90,RU,1561943520,87,64.42,-173.23,9,8
118,varska,,,,,,,,
119,fortuna,40,US,1561943749,77,40.6,-124.16,16.67,6.7
120,muli,65,CN,1561943750,74,28.08,109.56,23.95,0.45
121,natal,75,BR,1561943750,88,-5.81,-35.21,24,2.6
122,kruisfontein,56,ZA,1561943750,71,-34,24.73,13.65,4.86
123,cape town,75,ZA,1561943700,93,-33.93,18.42,13.33,7.2
124,makakilo city,75,US,1561943751,100,21.35,-158.09,30,2.6
125,inuvik,75,CA,1561943751,44,68.36,-133.71,14,2.1
126,tura,3,RU,1561943751,38,64.27,100.22,27.45,0.8
127,alice springs,30,AU,1561943510,25,-23.7,133.88,18,3.6
128,altamirano,0,AR,1561943752,93,-35.36,-58.15,6.67,2.6
129,flinders,0,AU,1561943500,53,-34.58,150.85,17.22,5.1
130,chengde,45,CN,1561943752,42,40.97,117.93,20.55,1.93
131,malakal,,,,,,,,
132,dondo,0,MZ,1561943753,97,-19.62,34.74,17.65,1.15
133,broome,0,GB,1561943528,87,52.47,1.45,16.11,5.1
134,yanam,90,IN,1561943612,83,16.73,82.22,27,6.2
135,corrente,0,BR,1561943753,57,-17.45,-44.68,17.95,0.71
136,east london,36,ZA,1561943754,17,-33.02,27.91,22.15,6.76
137,esna,0,RO,1561943754,66,45.2,27.57,20.35,2.27
138,balkanabat,0,TM,1561943754,52,39.51,54.36,27.05,8.21
139,losevo,0,RU,1561943755,87,51.73,38.83,12,4
140,raudeberg,90,NO,1561943755,100,61.99,5.14,12.22,8.7
141,kaitangata,100,NZ,1561943755,73,-46.28,169.85,10,1.79
142,latung,65,ID,1561943755,77,-8.45,120.42,22.65,2.96
143,korla,,,,,,,,
144,butaritari,100,KI,1561943756,71,3.07,172.79,28.45,3.8
145,yellowknife,75,CA,1561943756,37,62.45,-114.38,12,7.7
146,humaita,90,AR,1561943757,81,-24.93,-65.37,13,3.6
147,luderitz,17,NA,1561943757,93,-26.65,15.16,13,4.6
148,revelstoke,1,CA,1561943757,36,50.99,-118.19,25,1
149,yabelo,89,ET,1561943757,64,4.89,38.09,18.05,4
150,labuhan,93,ID,1561943758,78,-2.54,115.51,24.35,0.23
151,saskylakh,83,RU,1561943758,76,71.97,114.09,6.15,7.67
152,port lincoln,100,AU,1561943758,70,-34.72,135.86,14.95,12.31
153,sierra vista,90,US,1561943759,53,31.55,-110.3,32.78,8.2
154,mengcheng,59,CN,1561943759,52,33.26,116.57,26.95,4.68
155,taltal,100,CL,1561943759,89,-25.41,-70.49,9.85,1.41
156,vila franca do campo,20,PT,1561943510,82,37.72,-25.43,19,1.5
157,ambovombe,0,MG,1561943760,86,-25.18,46.09,22.85,5.32
158,tecoanapa,75,MX,1561943760,66,16.99,-99.26,30,1.5
159,tuatapere,67,NZ,1561943760,79,-46.13,167.69,12.22,0.45
160,chernyy yar,75,RU,1561943761,87,64.44,40.96,9,2
161,dalvik,0,SE,1561943761,76,57.79,14.13,15.56,7.2
162,tautira,75,PF,1561943761,57,-17.73,-149.15,27,2.1
163,attawapiskat,,,,,,,,
164,itoman,75,JP,1561943577,79,26.12,127.67,31,8.7
165,bambous virieux,75,MU,1561943760,73,-20.34,57.76,21,4.6
166,carnarvon,100,ZA,1561943762,77,-30.97,22.13,6.65,8.77
167,trimbak,100,IN,1561943762,95,19.93,73.53,21.85,2.79
168,bellary,100,IN,1561943763,85,15.15,76.93,22.15,7.47
169,busselton,76,AU,1561943763,72,-33.64,115.35,15,5.98
170,nizhneyansk,,,,,,,,
171,talnakh,0,RU,1561943763,76,69.49,88.39,10,6
172,tsihombe,,,,,,,,
173,bandundu,35,CD,1561943764,52,-3.32,17.38,26.05,2.15
174,souillac,75,FR,1561943504,77,45.6,-0.6,20,2.1
175,asau,,,,,,,,
176,saint anthony,1,US,1561943765,38,43.97,-111.68,27,1.5
177,port elizabeth,1,US,1561943536,47,39.31,-74.98,27.22,3.6
178,sao filipe,0,CV,1561943765,85,14.9,-24.5,23.15,9.54
179,qaqortoq,14,GL,1561943765,66,60.72,-46.03,9,1.5
180,kavieng,21,PG,1561943766,73,-2.57,150.8,28.25,2.25
181,vila,0,IT,1561943766,83,45.18,8.4,28.33,2.1
182,labytnangi,100,RU,1561943766,98,66.66,66.39,12.75,3.19
183,grindavik,0,IS,1561943766,75,63.84,-22.43,10,4.6
184,kodumudi,100,IN,1561943767,81,11.08,77.89,24.25,7.74
185,broken hill,97,AU,1561943767,53,-31.97,141.45,11,4.1
186,banda aceh,61,ID,1561943767,75,5.56,95.32,28.85,9.35
187,fereydun kenar,75,IR,1561943768,88,36.69,52.52,24,3.1
188,axim,0,GH,1561943506,92,4.87,-2.24,24.65,1.9
189,half moon bay,5,US,1561943488,52,37.46,-122.43,22.78,5.7
190,biltine,0,TD,1561943768,16,14.53,20.93,33.75,2.23
191,kadykchan,,,,,,,,
192,elko,1,US,1561943524,15,40.83,-115.76,30.56,3.1
193,avera,1,US,1561943769,52,33.19,-82.53,31,2.1
194,hongjiang,38,CN,1561943769,83,27.21,109.83,23.55,0.81
195,burica,,,,,,,,
196,kumluca,0,TR,1561943770,51,36.37,30.29,13.65,3.46
197,tasiilaq,90,GL,1561943769,75,65.61,-37.64,6,8.2
198,manggar,4,ID,1561943514,80,-2.88,108.27,25.55,2.42
199,kodiak,1,US,1561943518,29,39.95,-94.76,33,2.6
200,lazaro cardenas,5,MX,1561943771,13,28.39,-105.62,33,3.1
201,marsh harbour,91,BS,1561943634,66,26.54,-77.06,29.05,1.81
202,palauig,100,PH,1561943771,79,15.44,119.9,28.75,7.15
203,cooma,0,AU,1561943772,80,-36.24,149.13,2,5.1
204,aklavik,75,CA,1561943772,44,68.22,-135.01,14,2.1
205,elizabeth city,1,US,1561943746,88,36.3,-76.22,27.22,1.5
206,biskamzha,100,RU,1561943772,97,53.45,89.53,10.15,1.11
207,vostok,100,RU,1561943773,98,46.45,135.83,12.75,0.79
208,san jeronimito,20,MX,1561943773,62,17.55,-101.33,32,3.6
209,ancud,20,CL,1561943773,100,-41.87,-73.83,2,2.6
210,koyelga,96,RU,1561943773,78,54.65,60.9,12.35,2.95
211,gopamau,6,IN,1561943774,39,27.53,80.29,33.45,2.77
212,caravelas,0,BR,1561943535,88,-17.73,-39.27,23.05,2.28
213,leningradskiy,98,RU,1561943774,84,69.38,178.42,6.55,1.89
214,tumannyy,,,,,,,,
215,katsuura,75,JP,1561943775,94,33.93,134.5,25,1
216,bereda,90,ES,1561943775,93,43.27,-7.54,18.33,1.5
217,zuwarah,0,LY,1561943775,80,32.93,12.08,25.25,6.39
218,acapulco,75,MX,1561943736,66,16.86,-99.88,30,1.5
219,kimbe,88,PG,1561943776,70,-5.56,150.15,28.95,1.86
220,airai,69,TL,1561943776,65,-8.93,125.41,25.75,0.84
221,mahebourg,75,MU,1561943776,73,-20.41,57.7,21,4.6
222,longyearbyen,75,NO,1561943777,65,78.22,15.63,7,16.5
223,severo-kurilsk,0,RU,1561943777,90,50.68,156.12,6.65,6.25
224,hobyo,81,SO,1561943777,66,5.35,48.53,26.65,10.45
225,bathsheba,40,BB,1561943571,74,13.22,-59.52,28,9.8
226,bonavista,44,CA,1561943778,83,48.65,-53.11,9.44,1.34
227,kefamenanu,78,ID,1561943778,58,-9.45,124.48,24.95,0.57
228,miyako,75,JP,1561943778,78,33.63,130.94,26.11,4.1
229,fort frances,1,CA,1561943779,42,48.61,-93.4,27,2.6
230,bad liebenwerda,0,DE,1561943779,56,51.52,13.39,25,2.1
231,lolua,,,,,,,,
232,san quintin,99,PH,1561943779,81,17.54,120.52,27.55,0.87
233,anuchino,100,RU,1561943780,98,43.97,133.06,13.65,1.42
234,homer,1,US,1561943499,63,59.64,-151.54,25.56,5.7
235,kupino,0,RU,1561943780,80,54.36,77.31,12.75,2.32
236,nikolskoye,40,RU,1561943780,62,59.7,30.79,16.67,4
237,te anau,95,NZ,1561943545,87,-45.41,167.72,8.65,1.92
238,oum hadjer,0,TD,1561943781,20,13.3,19.7,33.35,2.02
239,saint george,20,GR,1561943768,68,39.45,22.34,22.22,0.78
240,berlevag,0,NO,1561943781,77,70.86,29.09,6.55,3.96
241,celestun,46,MX,1561943782,86,20.87,-90.4,24.05,8.37
242,rio grande,50,BR,1561943609,76,-32.03,-52.1,13.55,1.83
243,hay river,75,CA,1561943782,87,60.82,-115.79,10,6.7
244,koping,0,SE,1561943782,77,59.51,15.99,16.67,5.1
245,nelson bay,0,AU,1561943783,66,-32.72,152.14,15,3.6
246,porto seguro,0,BR,1561943783,88,-16.44,-39.06,23,1.5
247,urusha,13,RU,1561943783,40,54.05,122.9,24.85,3.22
248,iranshahr,0,IR,1561943555,16,27.21,60.69,31,2.1
249,saint-philippe,1,CA,1561943784,73,45.36,-73.48,22,1.53
250,kashi,,,,,,,,
251,lakeside,1,US,1561943784,50,32.86,-116.92,28.33,3.6
252,nanortalik,3,GL,1561943784,73,60.14,-45.24,3.65,1.62
253,anito,87,PH,1561943785,69,12.45,125.29,29.05,2.56
254,mocuba,7,MZ,1561943785,98,-16.84,36.99,18.05,0.79
255,clyde river,1,CA,1561943785,66,70.47,-68.59,9,2.1
256,geraldton,75,CA,1561943524,49,49.72,-86.95,23,4.6
257,kuminskiy,9,RU,1561943786,88,58.67,66.57,15.15,3.58
258,erenhot,33,CN,1561943786,33,43.65,111.97,20.55,5.07
259,hibbing,40,US,1561943786,65,47.43,-92.94,27,3.65
260,rundu,0,NA,1561943787,50,-17.91,19.77,11,0.57
261,hualmay,39,PE,1561943787,89,-11.1,-77.61,17.65,7.77
262,tempio pausania,0,IT,1561943787,83,40.9,9.1,21,0.5
263,prince rupert,90,CA,1561943788,77,54.32,-130.32,18,2.6
264,mashivka,11,UA,1561943788,93,49.44,34.87,14.35,3.39
265,kalianget,61,ID,1561943788,75,-7.74,113.68,18.95,0.87
266,northam,89,AU,1561943788,93,-31.65,116.67,14,1
267,cabedelo,40,BR,1561943520,100,-6.97,-34.84,23,3.1
268,shestakovo,2,RU,1561943789,47,56.49,103.96,22.35,1.64
269,kapaa,90,US,1561943789,78,22.08,-159.32,27,4.6
270,katangli,4,RU,1561943789,77,51.71,143.23,11.35,7.34
271,nioro,96,GM,1561943790,65,13.79,-15.05,27.55,5.64
272,henties bay,0,NA,1561943790,88,-22.12,14.28,12.22,2.27
273,paratinga,18,BR,1561943790,39,-12.69,-43.18,24.45,1.13
274,xining,100,CN,1561943717,74,36.62,101.77,10.75,1.38
275,keshan,,,,,,,,
276,kenai,1,US,1561943791,55,60.55,-151.26,25.56,8.7
277,matamoros,1,US,1561943791,70,25.87,-97.51,30,6.2
278,sterling,40,US,1561943564,39,39,-77.4,29,3.1
279,karaton,20,ID,1561943792,69,-6.34,106.1,26.67,2.6
280,gornopravdinsk,100,RU,1561943792,87,60.06,69.92,16.15,2.71
281,laon,0,FR,1561943792,72,49.56,3.62,17,2.6
282,la ronge,75,CA,1561943590,37,55.1,-105.3,21,7.2
283,abha,20,SA,1561943620,46,18.22,42.5,23,0.9
284,am timan,86,TD,1561943793,64,11.04,20.28,28.75,3.86
285,gigmoto,100,PH,1561943793,81,13.78,124.39,28.25,8.22
286,gloversville,1,US,1561943794,82,43.05,-74.34,21.11,2.1
287,bucak,0,TR,1561943794,62,37.46,30.59,25,3.6
288,san patricio,100,PY,1561943794,96,-26.98,-56.83,14.55,4.39
289,linxia,19,CN,1561943794,63,35.6,103.21,14.95,1.28
290,nokaneng,0,BW,1561943795,30,-19.66,22.19,12.85,2.17
291,corner brook,90,CA,1561943795,82,48.95,-57.95,15,5.7
292,faya,20,SA,1561943795,46,18.39,42.45,23,0.41
293,havre-saint-pierre,20,CA,1561943796,82,50.23,-63.6,14,1
294,onega,0,RU,1561943796,78,63.91,38.09,7.45,2.69
295,klaksvik,100,FO,1561943796,87,62.23,-6.59,7,11.8
296,kindersley,40,CA,1561943797,37,51.47,-109.16,22,11.3
297,anloga,20,GH,1561943797,88,5.79,0.9,26,3.6
298,taoudenni,95,ML,1561943504,20,22.68,-3.98,36.45,5.74
299,mandeville,1,US,1561943783,62,30.36,-90.07,31,2.1
300,toliary,,,,,,,,
301,mineiros,15,BR,1561943798,57,-17.57,-52.55,19.25,1.11
302,ust-ilimsk,0,RU,1561943798,40,57.96,102.73,25.45,1.13
303,esperance,17,AU,1561943798,93,-33.86,121.89,10,5.7
304,uniontown,1,US,1561943799,50,39.9,-79.72,24,3.36
305,mombetsu,75,JP,1561943799,87,44.35,143.35,21.11,2.1
306,manzhouli,23,CN,1561943799,40,49.6,117.43,21.55,4.41
307,curaca,64,BR,1561943799,75,-8.99,-39.91,23.15,7.77
308,batemans bay,0,AU,1561943800,82,-35.71,150.18,14.44,0.9
309,ambon,0,FR,1561943800,82,47.55,-2.56,16.67,3.1
310,iqaluit,20,CA,1561943514,81,63.75,-68.52,6,6.7
311,saleaula,,,,,,,,
312,verkhozim,77,RU,1561943801,83,52.71,45.42,13.89,3.44
313,evensk,99,RU,1561943801,83,61.92,159.24,11.05,3.26
314,port arthur,1,US,1561943801,74,29.9,-93.93,27,3.1
315,benguela,18,AO,1561943802,86,-12.58,13.4,20.75,4.25
316,mahibadhoo,89,MV,1561943802,73,3.78,72.97,28.35,3.58
317,beringovskiy,35,RU,1561943802,67,63.05,179.32,12.45,6.8
318,terney,100,RU,1561943803,97,45.05,136.61,10.45,1.51
319,shu,0,KZ,1561943559,43,43.6,73.76,22.05,2.85
320,pimentel,12,BR,1561943803,89,-3.7,-45.5,23.25,0.69
321,port augusta,100,AU,1561943803,66,-32.49,137.76,11.11,3.6
322,dubai,0,AE,1561943487,45,25.27,55.3,33,2.1
323,la macarena,90,CO,1561943804,97,2.18,-73.79,22.35,1.23
324,valparaiso,1,US,1561943804,50,41.47,-87.06,27,1.17
325,lata,60,IN,1561943804,77,30.78,78.62,5.15,1.86
326,nabire,100,ID,1561943805,87,-3.36,135.5,24.65,0.92
327,juneau,90,US,1561943805,64,58.3,-134.42,21.11,1.5
328,emba,0,CY,1561943805,44,34.81,32.42,26,1.5
329,baker city,20,US,1561943806,32,44.77,-117.83,27.78,5.7
330,malanje,0,AO,1561943806,65,-9.54,16.35,15.35,0.78
331,tokur,83,RU,1561943806,73,53.13,132.9,14.85,1.17
332,hihifo,,,,,,,,
333,khani,75,GE,1561943807,100,41.96,42.96,14,1
334,kutum,34,SD,1561943807,42,14.2,24.66,27.75,4.08
335,christchurch,100,NZ,1561943595,75,-43.53,172.64,14.44,1.08
336,dandong,0,CN,1561943807,62,40.12,124.37,22.55,3.59
337,brownsville,1,US,1561943808,70,25.91,-97.49,30,6.2
338,concarneau,0,FR,1561943808,93,47.88,-3.92,15,2.1
339,xuddur,64,SO,1561943808,77,4.12,43.89,23.55,8.43
340,los llanos de aridane,90,ES,1561943809,68,28.66,-17.92,22,5.1
341,bone,0,DE,1561943809,49,51.97,12.14,23.33,2.6
342,khokhlovo,0,RU,1561943809,82,50.71,36.69,15,4
343,pandan,100,PH,1561943809,85,11.72,122.09,27.45,10.21
344,fuerte olimpo,12,BR,1561943810,68,-21.04,-57.87,25.65,3.78
345,bandarbeyla,21,SO,1561943810,52,9.49,50.81,27.65,11.09
346,castro,20,CL,1561943810,100,-42.48,-73.76,2,2.6
347,brae,100,GB,1561943811,100,60.4,-1.35,11,6.7
348,sioux lookout,40,CA,1561943777,32,50.1,-91.92,29,4.6
349,coquimbo,0,CL,1561943811,87,-29.95,-71.34,11,2.1
350,husavik,0,CA,1561943811,45,50.56,-96.99,26.11,2.24
351,zaysan,0,KZ,1561943812,50,47.47,84.87,12.75,2.18
352,bridlington,30,GB,1561943812,87,54.08,-0.19,15.56,3.1
353,honiara,75,SB,1561943562,78,-9.43,159.96,28,9.97
354,port moresby,40,PG,1561943812,61,-9.47,147.16,27,7.7
355,laguna,75,BZ,1561943813,69,16.17,-88.94,28,2.1
356,labutta,,,,,,,,
357,antofagasta,90,CL,1561943813,71,-23.65,-70.4,14,5.7
358,hithadhoo,47,MV,1561943813,69,-0.6,73.08,28.95,3.42
359,deputatskiy,72,RU,1561943814,43,69.3,139.9,15.45,1.39
360,jumla,2,NP,1561943814,92,29.28,82.18,10.45,1.42
361,epinal,0,FR,1561943814,73,48.18,6.45,25,1.5
362,zhanatas,,,,,,,,
363,umzimvubu,,,,,,,,
364,batsfjord,0,NO,1561943815,81,70.63,29.72,7,4.6
365,suntar,25,RU,1561943815,52,62.16,117.65,25.05,1.94
366,eirunepe,73,BR,1561943815,82,-6.66,-69.87,24.85,0.53
367,sao joao da barra,0,BR,1561943816,95,-21.64,-41.05,20.55,1.28
368,namibe,0,AO,1561943816,77,-15.19,12.15,19.05,7.45
369,guia lopes da laguna,0,BR,1561943816,59,-21.46,-56.11,23.35,1.81
370,sorland,100,NO,1561943607,80,67.67,12.69,8.15,12.93
371,kysyl-syr,3,RU,1561943817,38,63.9,122.77,21.85,1.99
372,tazovskiy,50,RU,1561943817,64,67.47,78.7,9.95,4.56
373,prachin buri,8,TH,1561943643,87,14.05,101.37,29.44,1.05
374,hirara,40,JP,1561943817,84,24.8,125.28,31,8.2
375,batticaloa,100,LK,1561943818,65,7.71,81.69,23.25,0.61
376,eganville,20,CA,1561943818,56,45.54,-77.1,22,2.6
377,mareeba,90,AU,1561943819,64,-16.99,145.42,24,7.2
378,marcona,,,,,,,,
379,taua,54,BR,1561943819,73,-3.62,-49.62,25.55,0.75
380,iracoubo,98,GF,1561943819,95,5.48,-53.21,22.65,1.34
381,hambantota,75,LK,1561943820,100,6.12,81.12,26,4.6
382,vilyuysk,2,RU,1561943820,34,63.75,121.63,23.65,1.32
383,mantua,0,IT,1561943820,64,45.16,10.79,26.67,2.1
384,diapaga,11,BF,1561943556,64,12.07,1.79,28.45,2.44
385,sosnovo-ozerskoye,44,RU,1561943821,63,52.53,111.54,15.95,3.21
386,morros,0,BR,1561943821,88,-2.87,-44.04,26,1.5
387,panaba,100,MX,1561943821,91,21.28,-88.27,24.35,1.59
388,san policarpo,100,PH,1561943822,72,12.18,125.51,28.75,3.84
389,bella vista,90,AR,1561943822,93,-27.03,-65.31,10,1
390,luganville,75,VU,1561943822,57,-15.51,167.18,26,2.6
391,ponta delgada,20,PT,1561943823,82,37.73,-25.67,19,1.5
392,jiujiang,43,CN,1561943823,75,29.73,115.99,26.75,1.15
393,ilulissat,40,GL,1561943823,80,69.22,-51.1,4,1
394,chhaprauli,0,IN,1561943824,39,29.21,77.17,31.75,2.03
395,okahandja,37,NA,1561943824,74,-21.98,16.91,5,0.45
396,gurgan,,,,,,,,
397,pevek,100,RU,1561943824,97,69.7,170.27,0.15,5.06
398,beyneu,98,KZ,1561943825,52,45.32,55.19,22.45,6.96
399,shymkent,0,KZ,1561943825,56,42.31,69.59,23,2
400,coihaique,75,CL,1561943825,60,-45.58,-72.07,4,3.1
401,tilichiki,99,RU,1561943825,85,60.47,166.1,10.75,2.56
402,college,90,US,1561943826,82,64.86,-147.8,24,3.6
403,salalah,90,OM,1561943547,94,17.01,54.1,27,2.6
404,ismailia,0,EG,1561943663,94,30.6,32.27,22.95,2.07
405,lebork,0,PL,1561943826,72,54.54,17.75,21.67,8.7
406,voi,15,KE,1561943827,96,-3.4,38.57,18.15,2.82
407,nizhniy kuranakh,7,RU,1561943827,54,58.84,125.49,19.65,4.01
408,bethanien,55,NA,1561943827,69,-26.5,17.16,6.95,11.26
409,cockburn harbour,,,,,,,,
410,acarau,,,,,,,,
411,johi,0,PK,1561943828,49,26.69,67.61,34.85,4.32
412,narsaq,14,GL,1561943828,66,60.91,-46.05,9,1.5
413,kirakira,24,SB,1561943578,79,-10.46,161.92,26.75,6.95
414,setermoen,81,NO,1561943829,53,68.86,18.35,11,9.3
415,cine,0,TR,1561943829,27,37.61,28.06,26.11,6.7
416,tigzirt,0,DZ,1561943829,26,36.57,4.2,24.55,1.76
417,wulanhaote,,,,,,,,
418,san ramon de la nueva oran,92,AR,1561943830,70,-23.13,-64.33,15.15,0.41
419,isangel,40,VU,1561943830,78,-19.55,169.27,25,2.6
420,alyangula,12,AU,1561943830,54,-13.85,136.42,26,4.1
421,bilibino,100,RU,1561943831,87,68.06,166.44,5.05,3.36
422,pinega,92,RU,1561943831,74,64.7,43.39,7.15,1.13
423,malmyzh,20,RU,1561943831,94,56.52,50.68,8.05,2.16
424,muroto,75,JP,1561943786,94,33.37,134.14,24,0.5
425,kazalinsk,,,,,,,,
426,nantucket,1,US,1561943832,88,41.28,-70.1,19,6.2
427,malwan,,,,,,,,
428,buin,0,CL,1561943547,81,-33.73,-70.74,8,2.6
429,necochea,42,AR,1561943791,82,-38.55,-58.74,7.22,6.26
430,carnot,47,CF,1561943833,98,4.94,15.87,20.35,1.28
431,teguldet,100,RU,1561943833,97,57.31,88.17,10.15,2.98
432,matagami,71,NG,1561943548,93,9.67,8.4,21.95,0.92
433,price,90,US,1561943833,63,39.6,-110.81,22.78,5.1
434,yei,,,,,,,,
435,tuy hoa,100,VN,1561943834,72,13.08,109.3,26.15,4.35
436,itarema,9,BR,1561943834,84,-2.92,-39.92,23.75,2.85
437,khanino,8,RU,1561943834,92,55.23,40.07,9.44,0.89
438,pangnirtung,19,CA,1561943835,35,66.15,-65.72,10.35,2.3
439,golden rock,,,,,,,,
440,samusu,,,,,,,,
441,myskhako,40,RU,1561943835,68,44.66,37.76,20,3
442,jiddah,,,,,,,,
443,nouadhibou,0,MR,1561943836,73,20.93,-17.03,21,9.8
444,hovd,75,NO,1561943836,82,63.83,10.7,13,8.2
445,saryshagan,,,,,,,,
446,saint-leu,0,RE,1561943837,59,-21.15,55.28,21,4.6
447,concordia,34,AR,1561943837,84,-31.4,-58.02,10,1.34
448,kembe,,,,,,,,
449,chardara,,,,,,,,
450,shelburne,1,CA,1561943838,63,44.08,-80.2,22,3.1
451,guerrero negro,0,MX,1561943815,65,27.97,-114.04,22.25,9.24
452,walvis bay,43,NA,1561943838,82,-22.95,14.51,14,2.1
453,mitsamiouli,0,KM,1561943838,76,-11.38,43.28,26.15,3.69
454,waw,,,,,,,,
455,kendari,81,ID,1561943839,90,-3.99,122.52,24.65,1.28
456,vestmannaeyjar,100,IS,1561943830,79,63.44,-20.27,11.15,2.5
457,waipawa,61,NZ,1561943839,63,-39.94,176.59,14.44,0.45
458,lyngseidet,40,NO,1561943840,75,69.58,20.21,7,10.3
459,zhigansk,84,RU,1561943840,39,66.77,123.37,21.85,3.38
460,dutse,14,NG,1561943840,48,11.76,9.34,30.35,4.67
461,nizhniy odes,100,RU,1561943841,88,63.64,54.86,12.35,2.94
462,velizh,32,RU,1561943841,92,55.61,31.2,14.35,2.92
463,borovoy,100,RU,1561943841,97,63.23,52.89,11.35,2.04
464,sitka,0,US,1561943841,54,37.17,-99.65,29.44,4.47
465,cheuskiny,,,,,,,,
466,mahajanga,0,MG,1561943842,68,-15.72,46.32,22,1.9
467,vitim,58,RU,1561943842,41,59.44,112.57,26.05,0.68
468,muisne,88,EC,1561943843,82,0.61,-80.02,24.45,5.2
469,somerset east,19,ZA,1561943843,36,-32.72,25.59,16.05,10.78
470,savannah bight,18,HN,1561943843,82,16.45,-85.85,28.55,10.43
471,bay roberts,90,CA,1561943843,100,47.58,-53.28,11.67,2.6
472,tipitapa,20,NI,1561943644,70,12.2,-86.1,30,4.1
473,payakumbuh,86,ID,1561943844,93,-0.23,100.63,19.05,1.15
474,darovskoy,100,RU,1561943844,98,58.77,47.96,9.55,1.8
475,chokurdakh,98,RU,1561943844,48,70.62,147.9,10.55,3.66
476,petropavlovsk-kamchatskiy,20,RU,1561943845,76,53.05,158.65,12,5
477,amapa,75,HN,1561943845,88,15.09,-87.97,27.22,3.1
478,uddevalla,0,SE,1561943790,82,58.35,11.94,15.56,6.2
479,sinnamary,96,GF,1561943846,82,5.38,-52.96,26.25,4.21
480,beloha,0,MG,1561943846,73,-25.17,45.06,20.95,2.36
481,maceio,20,BR,1561943846,78,-9.67,-35.74,24,2.1
482,arona,0,IT,1561943846,83,45.76,8.56,28.33,2.1
483,pontian kecil,75,MY,1561943847,83,1.48,103.39,29,2.6
484,kodinsk,28,RU,1561943847,46,58.6,99.18,25.75,0.7
485,west plains,1,US,1561943847,74,36.73,-91.85,29,2.17
486,sakakah,,,,,,,,
487,corralillo,93,CU,1561943848,81,22.98,-80.59,27.85,3.62
488,akureyri,90,IS,1561943848,75,65.68,-18.09,5,3.1
489,litoral del san juan,,,,,,,,
490,teguise,23,ES,1561943848,73,29.06,-13.56,21,5.7
491,svetlogorsk,75,RU,1561943849,45,53.14,59.15,17,2
492,ankazoabo,2,MG,1561943849,72,-22.29,44.51,17.85,1.02
493,rawson,0,AR,1561943755,59,-43.3,-65.11,0.75,3.87
494,shache,100,CN,1561943849,56,38.42,77.24,26.11,2.52
495,namatanai,48,PG,1561943850,82,-3.66,152.44,26.75,5.71
496,udachnyy,90,RU,1561943850,72,66.42,112.4,18,2
497,sann,0,PK,1561943850,70,26.04,68.14,32,5.1
498,zaoyang,72,CN,1561943851,55,32.12,112.76,26.35,2.07
499,omboue,3,GA,1561943828,88,-1.57,9.26,23.45,7.03
500,amahai,74,ID,1561943851,84,-3.31,129,26.15,0.36
501,road town,20,VG,1561943851,74,18.42,-64.62,28,3.6
502,dingle,100,PH,1561943833,92,11,122.67,24.65,3.53
503,tabas,0,IR,1561943852,16,33.6,56.92,33,2.1
504,abay,0,KZ,1561943852,81,49.63,72.87,10,3
505,southend-on-sea,18,GB,1561943852,63,51.54,0.71,17,5.1
506,timberlake,1,US,1561943853,62,32.26,-81.31,30,2.2
507,ocala,20,US,1561943649,74,29.19,-82.14,30,2.1
508,semey,0,KZ,1561943853,67,50.41,80.25,14,3
509,port hardy,40,CA,1561943854,68,50.7,-127.42,19,5.7
510,leshukonskoye,63,RU,1561943854,90,64.9,45.76,4.05,1.29
511,puri,12,ID,1561943470,77,-7.54,112.45,21.95,3.57
512,mount gambier,100,AU,1561943854,80,-37.83,140.78,12.55,13.37
513,redmond,20,US,1561943776,27,47.67,-122.12,26.11,4.6
514,strezhevoy,0,RU,1561943855,77,60.73,77.6,17,0.74
515,the valley,20,AI,1561943582,74,18.22,-63.06,28,6.2
516,warqla,,,,,,,,
517,jiuquan,0,CN,1561943855,19,39.73,98.49,25.05,1.93
518,auki,17,NG,1561943856,59,12.18,6.51,27.55,4.88
519,fairbanks,90,US,1561943590,82,64.84,-147.72,24,3.6
520,pahrump,1,US,1561943856,6,36.21,-115.98,36.67,4.1
521,kushalgarh,100,IN,1561943856,79,23.2,74.45,25.85,0.75
522,ballina,79,IE,1561943857,91,54.11,-9.15,13.33,3.13
523,camapua,2,BR,1561943857,58,-19.53,-54.04,21.25,0.45
524,nenjiang,54,CN,1561943857,64,49.17,125.23,20.15,2.48
525,yar-sale,100,RU,1561943858,78,66.83,70.83,16.45,6.79
526,vestmanna,100,FO,1561943858,87,62.16,-7.17,7,11.8
527,chabahar,0,IR,1561943858,71,25.29,60.65,27.65,0.5
528,victoria,75,BN,1561943858,83,5.28,115.24,29,2.1
529,izazi,0,TZ,1561943859,76,-7.24,35.72,14.55,1.41
530,urumqi,,,,,,,,
531,zhanaozen,65,KZ,1561943859,59,43.35,52.85,21.25,6.44
532,cayenne,100,GF,1561943860,94,4.94,-52.33,24,1.22
533,tabiauea,,,,,,,,
534,jacareacanga,55,BR,1561943860,57,-6.22,-57.76,26.05,0.98
535,louisbourg,,,,,,,,
536,grand centre,,,,,,,,
537,bayangol,4,MN,1561943861,70,48.91,106.09,14.65,0.5
538,surt,0,LY,1561943861,77,31.21,16.59,25.15,3.58
539,tigil,100,RU,1561943861,80,57.8,158.67,11.55,1.68
540,qingdao,29,CN,1561943862,74,36.09,120.35,28.89,1
541,burscheid,20,DE,1561943862,68,51.08,7.12,20.56,1.5
542,puerto del rosario,12,ES,1561943584,77,28.5,-13.86,21,8.2
543,padang,56,ID,1561943863,78,-0.92,100.36,27.05,3.98
544,viru,0,EE,1561943863,59,57.74,26.74,19.44,4.1
545,sadovyy,0,RU,1561943863,87,55.14,82.97,12,2
546,muscat,0,OM,1561943863,39,23.6,58.55,38,4.6
547,rabo de peixe,20,PT,1561943864,82,37.8,-25.58,19,1.5
548,minden,1,US,1561943810,48,40.5,-98.95,32.22,5.7
549,indiana,1,US,1561943864,64,40.62,-79.15,22.78,1.5
550,marathon,82,CA,1561943865,58,48.72,-86.38,16.55,3.81
551,mizoch,0,UA,1561943865,88,50.4,26.14,17.78,4.34
552,ban nahin,68,LA,1561943865,95,18.24,104.21,24.05,0.26
553,fort nelson,75,CA,1561943865,55,58.81,-122.69,18,11.8
554,songjianghe,98,CN,1561943866,85,42.18,127.48,15.15,1.9
555,luanda,45,AO,1561943827,94,-8.83,13.24,20,2.6
556,siniscola,0,IT,1561943866,83,40.57,9.69,21,0.5
557,tahe,24,CN,1561943866,53,52.34,124.71,21.55,3.46
558,ketchikan,90,US,1561943867,68,55.34,-131.65,19,5.7
559,grand gaube,40,MU,1561943867,73,-20.01,57.66,21,4.1
560,laela,0,TZ,1561943867,66,-8.57,32.05,11.85,1.35
561,hof,1,DE,1561943868,77,50.32,11.92,24.44,1.05
562,kindu,0,CD,1561943821,64,-2.95,25.92,22.15,0.9
563,sagua la grande,75,CU,1561943868,83,22.81,-80.07,24,3.1
564,gore,100,ET,1561943868,99,8.15,35.53,12.35,1.13
565,prachuap khiri khan,84,TH,1561943869,95,11.81,99.79,22.65,1.91
566,lomas de sargentillo,75,EC,1561943869,74,-1.88,-80.08,26,3.1
567,ploemeur,0,FR,1561943869,87,47.73,-3.43,16.67,1
568,dargaville,19,NZ,1561943870,80,-35.94,173.86,15.75,4.33
569,okha,5,RU,1561943870,69,53.59,142.95,13.45,5.92
570,hervey bay,0,AU,1561943870,68,-25.3,152.85,21,4.6
571,nome,1,US,1561943870,74,30.04,-94.42,28.33,3.1
572,port hedland,64,AU,1561943871,26,-20.31,118.58,22,3.6
573,salinas,20,US,1561943606,67,36.67,-121.66,27,3.6
574,nortelandia,10,BR,1561943871,46,-14.45,-56.8,23.55,0.47
575,chapais,20,CA,1561943872,53,49.78,-74.86,22,2.6
576,cockburn town,0,TC,1561943872,80,21.46,-71.14,27.85,8.26
577,plettenberg bay,79,ZA,1561943872,86,-34.05,23.37,12.25,2.67
578,baiao,42,BR,1561943584,74,-2.79,-49.67,24.75,0.73
579,rocha,12,UY,1561943873,91,-34.48,-54.34,7.75,4.62
580,robertsport,88,LR,1561943873,89,6.75,-11.37,25.05,2.89
581,shimoda,75,JP,1561943873,100,34.7,138.93,24,1.5
582,carauari,70,BR,1561943874,67,-4.88,-66.9,27.25,0.92
583,gat,27,SN,1561943776,83,14.69,-16.54,25,2.6
584,ca mau,57,VN,1561943649,81,9.18,105.15,27.65,1.83
585,nguiu,,,,,,,,
586,mattru,100,SL,1561943874,95,7.62,-11.83,23.65,1.3
587,lavrentiya,92,RU,1561943767,79,65.58,-170.99,8.15,4.86
588,bairiki,,,,,,,,
589,marabba,50,SD,1561943875,66,12.35,32.18,26.75,4.43
590,oranjemund,20,ZA,1561943875,84,-28.55,16.43,13.65,8.11
591,kasangulu,0,CD,1561943876,88,-4.59,15.17,23,1.5
592,jabiru,,,,,,,,
593,ondjiva,0,AO,1561943876,40,-17.07,15.73,13.05,2.48
594,ixtapa,90,MX,1561943876,61,20.71,-105.21,31.67,6.2
595,shatsk,0,RU,1561943877,95,54.03,41.71,9.45,3.1
596,turukhansk,80,RU,1561943877,62,65.8,87.96,14.75,4.86
597,alpena,1,US,1561943808,67,45.06,-83.43,19.44,1.5
598,mokhsogollokh,0,RU,1561943877,42,61.4,128.95,20.55,3.88
599,tirupati,75,IN,1561943878,62,13.63,79.42,30,1.5
600,priyutnoye,5,RU,1561943878,62,46.1,43.51,13.89,5.81
601,satitoa,,,,,,,,
602,kloulklubed,75,PW,1561943851,74,7.04,134.26,29,4.1
603,kyren,14,RU,1561943879,68,51.68,102.13,9.85,1.41
604,manta,0,RO,1561943879,76,45.1,24.1,15.95,1.4
605,panshi,89,CN,1561943558,92,42.94,126.05,15.15,2.74
